<?xml version="1.0" encoding="UTF-8"?><kml xmlns="http://www.opengis.net/kml/2.2"><Document><Placemark><name>Basilique Sainte-Clotilde-Sainte-Valère</name><description>Construire à partir de 1846</description><Point><coordinates>2.3191559314727788,48.85834817715778</coordinates></Point><ExtendedData><Data name="name"><value>Basilique Sainte-Clotilde-Sainte-Valère</value></Data><Data name="description"><value>Construire à partir de 1846</value></Data></ExtendedData></Placemark><Placemark><name>Couvent L'Abbaye-aux-Bois</name><Point><coordinates>2.3271811008453374,48.85282440306947</coordinates></Point><ExtendedData><Data name="name"><value>Couvent L'Abbaye-aux-Bois</value></Data></ExtendedData></Placemark><Placemark><name>Eglise des Blancs-Manteaux</name><Point><coordinates>2.3577153682708745,48.858983460334564</coordinates></Point><ExtendedData><Data name="name"><value>Eglise des Blancs-Manteaux</value></Data></ExtendedData></Placemark><Placemark><name>Eglise La Trinité</name><Point><coordinates>2.33135461807251,48.87733260460296</coordinates></Point><ExtendedData><Data name="name"><value>Eglise La Trinité</value></Data></ExtendedData></Placemark><Placemark><name>Eglise Notre-Dame</name><Point><coordinates>2.3496687412261967,48.85306089662104</coordinates></Point><ExtendedData><Data name="name"><value>Eglise Notre-Dame</value></Data></ExtendedData></Placemark><Placemark><name>Eglise Notre-Dame-d'Auteuil </name><Point><coordinates>2.2695297002792363,48.84713763220042</coordinates></Point><ExtendedData><Data name="name"><value>Eglise Notre-Dame-d'Auteuil </value></Data></ExtendedData></Placemark><Placemark><name>Eglise Notre-Dame-de-Bercy </name><Point><coordinates>2.3872250318527226,48.8363200422488</coordinates></Point><ExtendedData><Data name="name"><value>Eglise Notre-Dame-de-Bercy </value></Data></ExtendedData></Placemark><Placemark><name>Eglise Notre-Dame-de-Bonne-Nouvelle</name><Point><coordinates>2.3495748639106755,48.86982702996318</coordinates></Point><ExtendedData><Data name="_storage_options"><value>[object Object]</value></Data><Data name="name"><value>Eglise Notre-Dame-de-Bonne-Nouvelle</value></Data><Data name="description"><value></value></Data></ExtendedData></Placemark><Placemark><name>Eglise Notre-Dame-de-Clignancourt </name><Point><coordinates>2.345012426376343,48.89307927192498</coordinates></Point><ExtendedData><Data name="name"><value>Eglise Notre-Dame-de-Clignancourt </value></Data></ExtendedData></Placemark><Placemark><name>Eglise Notre-Dame-de-Grâce-de-Passy </name><Point><coordinates>2.280269265174866,48.856438749742516</coordinates></Point><ExtendedData><Data name="name"><value>Eglise Notre-Dame-de-Grâce-de-Passy </value></Data></ExtendedData></Placemark><Placemark><name>Eglise Notre-Dame-de-l'Assomption </name><Point><coordinates>2.3255020380020146,48.86745313225674</coordinates></Point><ExtendedData><Data name="name"><value>Eglise Notre-Dame-de-l'Assomption </value></Data></ExtendedData></Placemark><Placemark><name>Eglise Notre-Dame-de-la-Croix-de-Ménilmontant </name><Point><coordinates>2.387466430664063,48.868638771944994</coordinates></Point><ExtendedData><Data name="name"><value>Eglise Notre-Dame-de-la-Croix-de-Ménilmontant </value></Data></ExtendedData></Placemark><Placemark><name>Eglise Notre-Dame-de-la-Gare </name><Point><coordinates>2.36831545829773,48.82983684208951</coordinates></Point><ExtendedData><Data name="name"><value>Eglise Notre-Dame-de-la-Gare </value></Data></ExtendedData></Placemark><Placemark><name>Eglise Notre-Dame-de-la-Victoire</name><Point><coordinates>2.340946197509766,48.866743852227934</coordinates></Point><ExtendedData><Data name="_storage_options"><value>[object Object]</value></Data><Data name="name"><value>Eglise Notre-Dame-de-la-Victoire</value></Data><Data name="description"><value></value></Data></ExtendedData></Placemark><Placemark><name>Eglise Notre-Dame-de-Lorette</name><Point><coordinates>2.3389184474945073,48.876337688948</coordinates></Point><ExtendedData><Data name="_storage_options"><value>[object Object]</value></Data><Data name="name"><value>Eglise Notre-Dame-de-Lorette</value></Data><Data name="description"><value></value></Data></ExtendedData></Placemark><Placemark><name>Eglise Notre-Dame-des-Champs </name><Point><coordinates>2.327095270156861,48.8434378839195</coordinates></Point><ExtendedData><Data name="name"><value>Eglise Notre-Dame-des-Champs </value></Data></ExtendedData></Placemark><Placemark><name>Eglise Notre-Dame-du-Travail</name><Point><coordinates>2.317106723785401,48.83593870075712</coordinates></Point><ExtendedData><Data name="name"><value>Eglise Notre-Dame-du-Travail</value></Data></ExtendedData></Placemark><Placemark><name>Eglise Saint-Ambroise</name><Point><coordinates>2.3760348558425908,48.86130923383687</coordinates></Point><ExtendedData><Data name="name"><value>Eglise Saint-Ambroise</value></Data></ExtendedData></Placemark><Placemark><name>Eglise Saint-Antoine-des-Quinze-Vingt</name><Point><coordinates>2.373679876327515,48.848800311724766</coordinates></Point><ExtendedData><Data name="name"><value>Eglise Saint-Antoine-des-Quinze-Vingt</value></Data></ExtendedData></Placemark><Placemark><name>Eglise Saint-Augustin</name><Point><coordinates>2.3188340663909917,48.87628123923961</coordinates></Point><ExtendedData><Data name="name"><value>Eglise Saint-Augustin</value></Data></ExtendedData></Placemark><Placemark><name>Eglise Saint-Benoît</name><Point><coordinates>2.345269918441773,48.84895563353161</coordinates></Point><ExtendedData><Data name="name"><value>Eglise Saint-Benoît</value></Data></ExtendedData></Placemark><Placemark><name>Eglise Saint-Bernard-de-la-Chapelle </name><Point><coordinates>2.3549956083297734,48.88606372816216</coordinates></Point><ExtendedData><Data name="name"><value>Eglise Saint-Bernard-de-la-Chapelle </value></Data></ExtendedData></Placemark><Placemark><name>Eglise Saint-Denys-du-Sacrement</name><Point><coordinates>2.3652148246765137,48.859943428504316</coordinates></Point><ExtendedData><Data name="name"><value>Eglise Saint-Denys-du-Sacrement</value></Data></ExtendedData></Placemark><Placemark><name>Eglise Saint-Eloi </name><Point><coordinates>2.388764619827271,48.844687638622986</coordinates></Point><ExtendedData><Data name="name"><value>Eglise Saint-Eloi </value></Data></ExtendedData></Placemark><Placemark><name>Eglise Saint-Etienne-du-Mont</name><Point><coordinates>2.3480808734893803,48.84657280281416</coordinates></Point><ExtendedData><Data name="name"><value>Eglise Saint-Etienne-du-Mont</value></Data></ExtendedData></Placemark><Placemark><name>Eglise Saint-Eugène</name><Point><coordinates>2.347211837768555,48.8733034268159</coordinates></Point><ExtendedData><Data name="name"><value>Eglise Saint-Eugène</value></Data></ExtendedData></Placemark><Placemark><name>Eglise Saint-Eustache</name><Point><coordinates>2.345243096351624,48.86335257842428</coordinates></Point><ExtendedData><Data name="_storage_options"><value>[object Object]</value></Data><Data name="name"><value>Eglise Saint-Eustache</value></Data><Data name="description"><value></value></Data></ExtendedData></Placemark><Placemark><name>Eglise Saint-Ferdinand-des-Ternes </name><Point><coordinates>2.290756702423096,48.87867323979057</coordinates></Point><ExtendedData><Data name="name"><value>Eglise Saint-Ferdinand-des-Ternes </value></Data></ExtendedData></Placemark><Placemark><name>Eglise Saint-François-Xavier</name><Point><coordinates>2.3133945465087895,48.85064649202942</coordinates></Point><ExtendedData><Data name="name"><value>Eglise Saint-François-Xavier</value></Data></ExtendedData></Placemark><Placemark><name>Eglise Saint-Germain-de-Charonne </name><Point><coordinates>2.4040371179580693,48.860497519398365</coordinates></Point><ExtendedData><Data name="name"><value>Eglise Saint-Germain-de-Charonne </value></Data></ExtendedData></Placemark><Placemark><name>Eglise Saint-Germain-des-Prés</name><Point><coordinates>2.3344713449478154,48.853960973801975</coordinates></Point><ExtendedData><Data name="name"><value>Eglise Saint-Germain-des-Prés</value></Data></ExtendedData></Placemark><Placemark><name>Eglise Saint-Germain-l'Auxerrois</name><Point><coordinates>2.3413565754890446,48.859488151777924</coordinates></Point><ExtendedData><Data name="_storage_options"><value>[object Object]</value></Data><Data name="name"><value>Eglise Saint-Germain-l'Auxerrois</value></Data><Data name="description"><value></value></Data></ExtendedData></Placemark><Placemark><name>Eglise Saint-Gervais</name><Point><coordinates>2.3548454046249394,48.855450477745</coordinates></Point><ExtendedData><Data name="name"><value>Eglise Saint-Gervais</value></Data></ExtendedData></Placemark><Placemark><name>Eglise Saint-Honoré-d'Eylau </name><Point><coordinates>2.2847002744674687,48.86913983741569</coordinates></Point><ExtendedData><Data name="name"><value>Eglise Saint-Honoré-d'Eylau </value></Data></ExtendedData></Placemark><Placemark><name>Eglise Saint-Jacques Saint-Christophe-de-la-Villette </name><Point><coordinates>2.37978458404541,48.889277103413704</coordinates></Point><ExtendedData><Data name="name"><value>Eglise Saint-Jacques Saint-Christophe-de-la-Villette </value></Data></ExtendedData></Placemark><Placemark><name>Eglise Saint-Jacques-du-Haut-Pas</name><Point><coordinates>2.341418266296387,48.84356144862696</coordinates></Point><ExtendedData><Data name="name"><value>Eglise Saint-Jacques-du-Haut-Pas</value></Data></ExtendedData></Placemark><Placemark><name>Eglise Saint-Jean-Baptiste-de-Belleville </name><Point><coordinates>2.389311790466309,48.875586196984464</coordinates></Point><ExtendedData><Data name="name"><value>Eglise Saint-Jean-Baptiste-de-Belleville </value></Data></ExtendedData></Placemark><Placemark><name>Eglise Saint-Jean-Baptiste-de-Grenelle </name><Point><coordinates>2.292607426643372,48.84320134491482</coordinates></Point><ExtendedData><Data name="name"><value>Eglise Saint-Jean-Baptiste-de-Grenelle </value></Data></ExtendedData></Placemark><Placemark><name>Eglise Saint-Joseph-des-Nations</name><Point><coordinates>2.3733687400817876,48.869005749964536</coordinates></Point><ExtendedData><Data name="name"><value>Eglise Saint-Joseph-des-Nations</value></Data></ExtendedData></Placemark><Placemark><name>Eglise Saint-Lambert-de-Vaugirard </name><Point><coordinates>2.2982615232467656,48.83963900301541</coordinates></Point><ExtendedData><Data name="name"><value>Eglise Saint-Lambert-de-Vaugirard </value></Data></ExtendedData></Placemark><Placemark><name>Eglise Saint-Laurent</name><Point><coordinates>2.358251810073853,48.87482058088655</coordinates></Point><ExtendedData><Data name="name"><value>Eglise Saint-Laurent</value></Data></ExtendedData></Placemark><Placemark><name>Eglise Saint-Lazare</name><Point><coordinates>2.3540246486663823,48.87561089408286</coordinates></Point><ExtendedData><Data name="_storage_options"><value>[object Object]</value></Data><Data name="name"><value>Eglise Saint-Lazare</value></Data><Data name="description"><value></value></Data></ExtendedData></Placemark><Placemark><name>Eglise Saint-Leu Saint-Gilles (1856)</name><Point><coordinates>2.350156903266907,48.86288321649548</coordinates></Point><ExtendedData><Data name="_storage_options"><value>[object Object]</value></Data><Data name="name"><value>Eglise Saint-Leu Saint-Gilles (1856)</value></Data><Data name="description"><value></value></Data></ExtendedData></Placemark><Placemark><name>Eglise Saint-Louis-d'Antin</name><Point><coordinates>2.3285704851150517,48.87472884729613</coordinates></Point><ExtendedData><Data name="_storage_options"><value>[object Object]</value></Data><Data name="name"><value>Eglise Saint-Louis-d'Antin</value></Data><Data name="description"><value></value></Data></ExtendedData></Placemark><Placemark><name>Eglise Saint-Louis-en-l'Île</name><Point><coordinates>2.357656359672547,48.85122892484524</coordinates></Point><ExtendedData><Data name="name"><value>Eglise Saint-Louis-en-l'Île</value></Data></ExtendedData></Placemark><Placemark><name>Eglise Saint-Marcel</name><Point><coordinates>2.359217405319214,48.83753466616984</coordinates></Point><ExtendedData><Data name="name"><value>Eglise Saint-Marcel</value></Data></ExtendedData></Placemark><Placemark><name>Eglise Saint-Marcel-de-la-Maison-Blanche</name><description>Puis chapelle Bréa, disparue.</description><Point><coordinates>2.357028722763062,48.82616406891579</coordinates></Point><ExtendedData><Data name="name"><value>Eglise Saint-Marcel-de-la-Maison-Blanche</value></Data><Data name="description"><value>Puis chapelle Bréa, disparue.</value></Data></ExtendedData></Placemark><Placemark><name>Eglise Saint-Martin-des-Champs</name><Point><coordinates>2.3628866672515874,48.87006432532587</coordinates></Point><ExtendedData><Data name="name"><value>Eglise Saint-Martin-des-Champs</value></Data></ExtendedData></Placemark><Placemark><name>Eglise Saint-Médard</name><Point><coordinates>2.350516319274903,48.83991792693482</coordinates></Point><ExtendedData><Data name="name"><value>Eglise Saint-Médard</value></Data></ExtendedData></Placemark><Placemark><name>Eglise Saint-Merri</name><Point><coordinates>2.3507791757583623,48.85906110550324</coordinates></Point><ExtendedData><Data name="name"><value>Eglise Saint-Merri</value></Data></ExtendedData></Placemark><Placemark><name>Eglise Saint-Michel-des-Batignolles </name><Point><coordinates>2.324670553207398,48.88907605305987</coordinates></Point><ExtendedData><Data name="name"><value>Eglise Saint-Michel-des-Batignolles </value></Data></ExtendedData></Placemark><Placemark><name>Eglise Saint-Nicolas-des-Champs</name><Point><coordinates>2.3544001579284672,48.86543112834003</coordinates></Point><ExtendedData><Data name="name"><value>Eglise Saint-Nicolas-des-Champs</value></Data></ExtendedData></Placemark><Placemark><name>Eglise Saint-Nicolas-du-Chardonnet</name><Point><coordinates>2.3503178358078007,48.84915684515593</coordinates></Point><ExtendedData><Data name="name"><value>Eglise Saint-Nicolas-du-Chardonnet</value></Data></ExtendedData></Placemark><Placemark><name>Eglise Saint-Paul-Saint-Antoine</name><Point><coordinates>2.3614168167114262,48.854568075546226</coordinates></Point><ExtendedData><Data name="name"><value>Eglise Saint-Paul-Saint-Antoine</value></Data></ExtendedData></Placemark><Placemark><name>Eglise Saint-Philippe-du-Roule</name><Point><coordinates>2.310556769371033,48.873321068406675</coordinates></Point><ExtendedData><Data name="_storage_options"><value>[object Object]</value></Data><Data name="name"><value>Eglise Saint-Philippe-du-Roule</value></Data><Data name="description"><value></value></Data></ExtendedData></Placemark><Placemark><name>Eglise Saint-Pierre du Gros-Caillou </name><Point><coordinates>2.3051816225051884,48.85965049899262</coordinates></Point><ExtendedData><Data name="name"><value>Eglise Saint-Pierre du Gros-Caillou </value></Data></ExtendedData></Placemark><Placemark><name>Eglise Saint-Pierre-de-Chaillot</name><Point><coordinates>2.2987818717956547,48.86816593091333</coordinates></Point><ExtendedData><Data name="_storage_options"><value>[object Object]</value></Data><Data name="name"><value>Eglise Saint-Pierre-de-Chaillot</value></Data><Data name="description"><value></value></Data></ExtendedData></Placemark><Placemark><name>Eglise Saint-Pierre-de-Montrouge </name><Point><coordinates>2.3270738124847417,48.82882685630229</coordinates></Point><ExtendedData><Data name="name"><value>Eglise Saint-Pierre-de-Montrouge </value></Data></ExtendedData></Placemark><Placemark><name>Eglise Saint-Roch</name><Point><coordinates>2.332486510276795,48.86521233767744</coordinates></Point><ExtendedData><Data name="_storage_options"><value>[object Object]</value></Data><Data name="name"><value>Eglise Saint-Roch</value></Data><Data name="description"><value></value></Data></ExtendedData></Placemark><Placemark><name>Eglise Saint-Séverin</name><Point><coordinates>2.345666885375977,48.8521219753372</coordinates></Point><ExtendedData><Data name="name"><value>Eglise Saint-Séverin</value></Data></ExtendedData></Placemark><Placemark><name>Eglise Saint-Sulpice</name><Point><coordinates>2.3349487781524663,48.85097124328362</coordinates></Point><ExtendedData><Data name="name"><value>Eglise Saint-Sulpice</value></Data></ExtendedData></Placemark><Placemark><name>Eglise Saint-Thomas-d'Aquin</name><Point><coordinates>2.327765822410584,48.85606462049553</coordinates></Point><ExtendedData><Data name="name"><value>Eglise Saint-Thomas-d'Aquin</value></Data></ExtendedData></Placemark><Placemark><name>Eglise Saint-Vincent-de-Paul</name><Point><coordinates>2.351937890052796,48.878994281305616</coordinates></Point><ExtendedData><Data name="name"><value>Eglise Saint-Vincent-de-Paul</value></Data></ExtendedData></Placemark><Placemark><name>Eglise Sainte-Elisabeth</name><Point><coordinates>2.3605692386627197,48.86609102341601</coordinates></Point><ExtendedData><Data name="name"><value>Eglise Sainte-Elisabeth</value></Data></ExtendedData></Placemark><Placemark><name>Eglise Sainte-Madeleine</name><Point><coordinates>2.3243808746337895,48.869831440667916</coordinates></Point><ExtendedData><Data name="_storage_options"><value>[object Object]</value></Data><Data name="name"><value>Eglise Sainte-Madeleine</value></Data><Data name="description"><value></value></Data></ExtendedData></Placemark><Placemark><name>Eglise Sainte-Marguerite</name><Point><coordinates>2.3806804418563847,48.852937355352864</coordinates></Point><ExtendedData><Data name="name"><value>Eglise Sainte-Marguerite</value></Data></ExtendedData></Placemark><Placemark><name>Eglise Sainte-Marie-des-Batignolles </name><Point><coordinates>2.317847013473511,48.88674451535104</coordinates></Point><ExtendedData><Data name="name"><value>Eglise Sainte-Marie-des-Batignolles </value></Data></ExtendedData></Placemark><Placemark><name>Eglise Sainte-Valère</name><Point><coordinates>2.317546606063843,48.85803759133688</coordinates></Point><ExtendedData><Data name="name"><value>Eglise Sainte-Valère</value></Data></ExtendedData></Placemark><Placemark><name>Notre Dame-des-Victoires</name><Point><coordinates>2.3409569263458256,48.86677208247094</coordinates></Point><ExtendedData><Data name="_storage_options"><value>[object Object]</value></Data><Data name="name"><value>Notre Dame-des-Victoires</value></Data><Data name="description"><value></value></Data></ExtendedData></Placemark><Placemark><name>Séminaire des Missions étrangères</name><Point><coordinates>2.3232865333557133,48.85180429121685</coordinates></Point><ExtendedData><Data name="name"><value>Séminaire des Missions étrangères</value></Data></ExtendedData></Placemark></Document></kml>